{"title":"Railway Stations","description":"Railway station locations","count":17,"type":"FeatureCollection","features":[{"type":"Feature","properties":{"id":"RS-001","index":1,"name":"Garhani"},"geometry":{"type":"Point","coordinates":[84.570105,25.411681]}},{"type":"Feature","properties":{"id":"RS-002","index":2,"name":"Udwant Nagar Halt"},"geometry":{"type":"Point","coordinates":[84.625648,25.517488]}},{"type":"Feature","properties":{"id":"RS-003","index":3,"name":"Sadisopur"},"geometry":{"type":"Point","coordinates":[84.91709,25.5665]}},{"type":"Feature","properties":{"id":"RS-004","index":4,"name":"Patel Halt"},"geometry":{"type":"Point","coordinates":[84.895763,25.56382]}},{"type":"Feature","properties":{"id":"RS-005","index":5,"name":"Jamira Halt"},"geometry":{"type":"Point","coordinates":[84.705593,25.557544]}},{"type":"Feature","properties":{"id":"RS-006","index":6,"name":"Kulharia"},"geometry":{"type":"Point","coordinates":[84.758203,25.568207]}},{"type":"Feature","properties":{"id":"RS-007","index":7,"name":"Sachiwalaya"},"geometry":{"type":"Point","coordinates":[85.11746,25.595993]}},{"type":"Feature","properties":{"id":"RS-008","index":8,"name":"Bihta"},"geometry":{"type":"Point","coordinates":[84.872341,25.561037]}},{"type":"Feature","properties":{"id":"RS-009","index":9,"name":"Pali"},"geometry":{"type":"Point","coordinates":[84.813989,25.557095]}},{"type":"Feature","properties":{"id":"RS-010","index":10,"name":"Koelwar"},"geometry":{"type":"Point","coordinates":[84.792755,25.569373]}},{"type":"Feature","properties":{"id":"RS-011","index":11,"name":"Ara Junction"},"geometry":{"type":"Point","coordinates":[84.661632,25.548466]}},{"type":"Feature","properties":{"id":"RS-012","index":12,"name":"Neora"},"geometry":{"type":"Point","coordinates":[84.986958,25.575049]}},{"type":"Feature","properties":{"id":"RS-013","index":13,"name":"Gandhi Halt"},"geometry":{"type":"Point","coordinates":[84.957647,25.571521]}},{"type":"Feature","properties":{"id":"RS-014","index":14,"name":"Digha Bridge Halt"},"geometry":{"type":"Point","coordinates":[85.07962,25.644897]}},{"type":"Feature","properties":{"id":"RS-015","index":15,"name":"Phulwari Sharif"},"geometry":{"type":"Point","coordinates":[85.08028,25.586607]}},{"type":"Feature","properties":{"id":"RS-016","index":16,"name":"Danapur"},"geometry":{"type":"Point","coordinates":[85.046344,25.582186]}},{"type":"Feature","properties":{"id":"RS-017","index":17,"name":"Patliputra"},"geometry":{"type":"Point","coordinates":[85.068801,25.621649]}}]}